vivod:
nano: @55.376533;037.431790;3;16:58:37;12.10.19;24.00;735.72;  S
? => !
uno: @11-10-2019, 22:48:31, Fri;20;15;17;

=========================
Real time(GMT+3), 14-10-2019, 21:17:20, Mon
successfull: ARDUINO NANO;
successfull: SD-card;
gps coordinates: 55.376504; 037.431491;
gps satellites: 3;
gps time: 18:17:29;
gps date: 14.10.19;
temperature(C): 24.30;
pressure(mmHg): 738.13;
humidity(%): 20;
dust: 0;
sievert(@/42 sec): 1;
=========================

==============================
Real time(GMT+3): 14-10-2019, 19:14:26, Mon
gps coordinates: 55.376453; 037.431668;
gps satellites: 3;
gps time: 16:14:40;
gps date: 14.10.19;
temperature(C): 24.50;
pressure(mmHg): 738.75;
humidity(%): 19;
dust: 1;
sievert(@/42 sec): 1;
==============================

==============================
Real time(GMT+3): 11-10-2019, 22:48:31, Fri
gps coordinates: x; x;
gps satellites: 2;
gps time: 21:18:27;
gps date: 12.10.19;
temperature(C): 23.30
pressure(mmHg): 736.05
humidity(%): 20
dust: 15
sievert(@/42 sec): 17
==============================

real time: 23-09-2019, 23:08:55, Mon
system time: 5362
gps coordinates: 55.376538; 037.431973;
gps satellites: 3;
gps time: 20:09:02;
gps date: 23.09.19;
temperature: 19 *C
humidity: 35 %
dust: 1
zivert: 21

553765340374318343174236121019
  \     \  \     \\ \ \ \ \ \
 
55.376534037.431834317:42:3612.10.19
         \         \\       \      
55.376534;037.4318343;17:42:36;12.10.19


Кружок
gps:  5538.6949, 03740.2765 - 25.7990, 26.8347
gps:  55.386949, 37.402765 - 0.257990, 0.268347
real: 55.644939, 37.671112

Дом
gps:  5537.6411, 03743.1944 // + 25.7990, 26.8347
gps:  5563.4401, 03770.0291
gps:  55.634401, 37.700291

Дом:
gps:  5537.6437, 03743.2065  // + 25.7990, 26.8347
gps:  5563.4427, 03770.0412
gps:  55.634427, 37.700412
real: 55.627319, 37.718585

// + 25.8000, 26.8350

дом: 
gps:  5537.6437, 03743.2065  // + 25.8000, 26.8350
gps:  5563.4437, 03770.0415
gps:  55.634437, 37.700415
real: 55.627319, 37.718585

gps:

$GPGGA,152019.092,,,,,0,0,,,M,,M,,*4D
$GPGSA,A,1,,,,,,,,,,,,,,,*1E
$GPGSV,1,1,03,09,,,40,06,,,45,23,,,47*72
$GPRMC,152019.092,V,,,,,0.00,0.00,100180,,,N*40

$GPGGA,152040.000,5538.6784,N,03740.3027,E,1,3,4.41,135.6,M,14.4,M,,*5C
$GPGSA,A,2,09,06,23,,,,,,,,,,4.52,4.41,1.00*0E
$GPGSV,2,1,05,23,83,239,47,09,46,259,44,06,38,289,46,03,,,41*41
$GPGSV,2,2,05,26,,,33*78
$GPRMC,152040.000,A,5538.6784,N,03740.3027,E,0.03,0.00,190919,,,A*66

$GPGGA,200902.000,5537.6538,N,03743.1973,E,1,5,2.72,154.9,M,14.4,M,,*5C
$GPGSA,A,3,07,30,27,11,08,,,,,,,,2.88,2.72,0.94*03
$GPGSV,3,1,12,30,67,098,16,28,64,182,,13,59,286,,07,33,094,25*70
$GPGSV,3,2,12,08,28,050,20,15,26,307,,05,21,236,,11,10,095,27*73
$GPGSV,3,3,12,27,06,020,26,20,03,347,20,17,02,164,16,43,,,*4B
$GPRMC,200902.000,A,5537.6538,N,03743.1973,E,0.43,261.39,230919,,,A*6C

$GPGGA,075025.000,,,,,0,0,,,M,,M,,*4D
$GPGSA,A,1,,,,,,,,,,,,,,,*1E
$GPGSV,4,1,13,20,73,142,,27,59,285,,21,57,096,,10,52,195,*7C
$GPGSV,4,2,13,25,34,260,,06,29,090,,09,27,054,,08,24,307,*7A
$GPGSV,4,3,13,13,17,033,,23,10,026,,30,06,349,,19,02,136,*79
$GPGSV,4,4,13,31,,,30*7A
$GPRMC,075025.000,V,,,,,0.00,84.89,230919,,,N*75


$ G P G G A , 0 7 5 0 2 5 . 0 0 0 , , , , , 0 , 0 , , , M , , M , , * 4 D
$ G P G S A , A , 1 , , , , , , , , , , , , , , , * 1 E
$ G P G S V , 4 , 1 , 1 3 , 2 0 , 7 3 , 1 4 2 , , 2 7 , 5 9 , 2 8 5 , , 2 1 , 5 7 , 0 9 6 , , 1 0 , 5 2 , 1 9 5 , *7 C
$ G P G S V , 4 , 2 , 1 3 , 2 5 , 3 4 , 2 6 0 , , 0 6 , 2 9 , 0 9 0 , , 0 9 , 2 7 , 0 5 4 , , 0 8 , 2 4 , 3 0 7 , * 7 A
$ G P G S V , 4 , 3 , 1 3 , 1 3 , 1 7 , 0 3 3 , , 2 3 , 1 0 , 0 2 6 , , 3 0 , 0 6 , 3 4 9 , , 1 9 , 0 2 , 1 3 6 , * 7 9
$ G P G S V , 4 , 4 , 1 3 , 3 1 , , , 3 0 * 7 A 
$ G P R M C , 0 7 5 0 2 5 . 0 0 0 , V , , , , , 0 . 0 0 , 8 4 . 8 9 , 2 3 0 9 1 9 , , , N * 7 5
--------
316 символов

$GPGGA,200902.000,5537.6538,N,03743.1973,E,1,5,2.72,154.9,M,14.4,M,,*5C
$GPGSA,A,3,07,30,27,11,08,,,,,,,,2.88,2.72,0.94*03
$GPGSV,3,1,12,30,67,098,16,28,64,182,,13,59,286,,07,33,094,25*70
$GPGSV,3,2,12,08,28,050,20,15,26,307,,05,21,236,,11,10,095,27*73
$GPGSV,3,3,12,27,06,020,26,20,03,347,20,17,02,164,16,43,,,*4B
$GPRMC,200902.000,A,5537.6538,N,03743.1973,E,0.43,261.39,230919,,,A*6C



$GPGGA, 200902 .000, 5537.6538 ,N, 03743.1973 ,E,1,5,2.72,154.9,M,14.4,M,,*5C
                     ==== ====     ===== ==== 
$GPGSA,A,3,07,30,27,11,08,,,,,,,,2.88,2.72,0.94*03

$GPGSV,3,1,12,30,67,098,16,28,64,182,,13,59,286,,07,33,094,25*70

$GPGSV,3,2,12,08,28,050,20,15,26,307,,05,21,236,,11,10,095,27*73

$GPGSV,3,3,12,27,06,020,26,20,03,347,20,17,02,164,16,43,,,*4B 

$GPRMC,200902.000,A,5537.6538,N,03743.1973,E,0.43,261.39,230919,,,A*6C
       ======                                            ======


NANO вывод:

143.95;24.40;16;743.79;55.376493;037.431684;3;16:40:19;08.10.19;
173.39;24.44;16;743.79;55.376434;037.431570;3;16:40:33;08.10.19;
165.67;24.50;64;743.76;55.376414;037.431534;3;16:40:36;08.10.19;
157.96;24.80;61;743.79;55.376383;037.431544;3;16:40:45;08.10.19;
157.23;25.09;48;743.83;55.376361;037.431576;3;16:40:51;08.10.19;
157.81;26.06;46;743.79;55.376354;037.431576;3;16:40:54;08.10.19;
148.54;25.00;0;743.76;x;x;3;16:41:23;08.10.19;
147.17;24.97;16;743.74;x;x;3;16:41:27;08.10.19;
143.16;24.49;17;743.78;55.376527;037.432264;3;16:44:54;08.10.19;
238.28;24.40;17;459.04;55.376532;037.432029;3;16:45:17;08.10.19;
208.89;24.40;17;459.04;55.376532;037.432019;3;16:45:20;08.10.19;
198.83;24.40;17;459.04;55.376532;037.432011;3;16:45:22;08.10.19;
201.46;24.40;17;743.78;55.376533;037.431974;3;16:45:32;08.10.19;
168.51;24.50;17;743.74;E;
259.72;24.40;17;743.79;55.376509;037.431775;3;16:46:48;08.10.19;






